City_ID,City,Lat,Lng,Max Temp,Humidity,Cloudiness,Wind Speed,Country,Date
0,dolinsk,47.35,142.8,63.45,88,100,6.35,RU,1690838191
1,ancud,-41.8697,-73.8203,52.32,81,95,32.61,CL,1690837867
2,puerto natales,-51.7236,-72.4875,29.7,83,100,0.47,CL,1690838042
3,geraldton,-28.7667,114.6,45.01,93,0,10.36,AU,1690838045
4,dharmavaram,14.4333,77.7167,76.71,75,100,19.48,IN,1690838192
5,grytviken,-54.2811,-36.5092,25.12,83,20,10.36,GS,1690838039
6,mount pearl,47.5166,-52.7813,63.32,88,100,11.5,CA,1690838193
7,carutapera,-1.195,-46.02,79.16,80,5,7.52,BR,1690838193
8,la'ie,21.6477,-157.9253,85.96,73,70,18.12,US,1690838194
9,la sarre,48.8002,-79.1996,57.58,66,79,6.22,CA,1690838194
10,kaffrine,14.1059,-15.5508,84.31,66,36,8.55,SN,1690838195
11,port elizabeth,-33.918,25.5701,51.1,87,100,14.97,ZA,1690838124
12,ribeira grande,38.5167,-28.7,77.77,89,13,1.01,PT,1690838196
13,port-aux-francais,-49.35,70.2167,39.27,87,100,37.65,TF,1690838042
14,kaiyuan,23.6977,103.3037,67.55,96,100,2.15,CN,1690838196
15,kodiak,57.79,-152.4072,56.71,88,100,4.61,US,1690838197
16,west island,-12.1568,96.8225,76.98,83,69,14.97,CC,1690838197
17,isafjordur,66.0755,-23.124,50.81,82,81,6.02,IS,1690838198
18,ilulissat,69.2167,-51.1,42.82,93,75,3.44,GL,1690838062
19,midvagur,62.0511,-7.1939,56.23,82,75,5.75,FO,1690838199
20,edinburgh of the seven seas,-37.0676,-12.3116,56.98,89,99,21.09,SH,1690838059
21,petropavlovsk-kamchatsky,53.0452,158.6483,50.59,100,100,4.47,RU,1690838072
22,lau,9.2167,11.2833,81.84,71,88,8.52,NG,1690838200
23,fortuna,40.5982,-124.1573,69.93,73,0,14.97,US,1690838200
24,olonkinbyen,70.9221,-8.7187,45.34,91,97,4.18,SJ,1690837967
25,baker city,44.7749,-117.8344,87.51,22,0,6.91,US,1690838201
26,bluefields,12.0137,-83.7635,84.58,73,59,9.6,NI,1690838202
27,egilsstadir,65.2653,-14.3948,48.11,87,100,11.5,IS,1690838202
28,arraias,-12.9288,-46.9437,81.59,30,91,2.46,BR,1690838202
29,hermanus,-34.4187,19.2345,44.8,67,38,1.86,ZA,1690838204
30,bethel,41.3712,-73.414,82.94,54,75,6.91,US,1690838062
31,lazaro cardenas,17.9583,-102.2,90.01,59,96,11.43,MX,1690838205
32,waitangi,-43.9535,-176.5597,53.82,86,10,7.0,NZ,1690838055
33,kayangel,8.0823,134.7173,82.53,79,98,7.61,PW,1690838205
34,utrik,11.2278,169.8474,82.63,79,100,15.64,MH,1690838078
35,yellowknife,62.456,-114.3525,72.12,56,75,11.5,CA,1690838048
36,klyuchi,52.2667,79.1667,69.85,60,55,5.1,RU,1690838206
37,shiraoi,42.55,141.35,71.76,88,0,3.02,JP,1690838207
38,lihue,21.9789,-159.3672,85.59,70,0,14.97,US,1690838059
39,tiksi,71.6872,128.8694,39.2,92,59,2.77,RU,1690838057
40,weno,7.4515,151.8468,83.73,76,26,8.84,FM,1690838208
41,blackmans bay,-43.0167,147.3167,46.53,79,73,14.38,AU,1690838056
42,awjilah,29.1081,21.2869,83.17,51,0,17.63,LY,1690838209
43,longyearbyen,78.2186,15.6401,46.24,71,75,11.5,SJ,1690838046
44,saldanha,-33.0117,17.9442,51.46,79,3,7.92,ZA,1690838210
45,noshiro,40.2039,140.0242,72.91,93,9,4.21,JP,1690838210
46,puerto ayora,-0.7393,-90.3518,84.16,89,71,5.01,EC,1690838061
47,papatowai,-46.5619,169.4708,45.82,59,7,12.91,NZ,1690838043
48,divnogorsk,55.9594,92.3619,57.74,95,0,3.24,RU,1690838211
49,bamboo flat,11.7,92.7167,84.29,84,75,12.66,IN,1690838211
50,talnakh,69.4865,88.3972,58.21,87,9,0.43,RU,1690838212
51,adamstown,-25.066,-130.1015,66.33,56,99,20.07,PN,1690837806
52,calderitas,18.55,-88.25,86.11,74,75,9.22,MX,1690838213
53,novovelichkovskaya,45.2778,38.8436,73.54,40,79,8.77,RU,1690838213
54,stanley,54.868,-1.6985,55.71,93,40,3.44,GB,1690838213
55,punta arenas,-53.15,-70.9167,33.12,98,100,15.82,CL,1690838214
56,remire-montjoly,4.9167,-52.2667,84.24,74,0,11.5,GF,1690838214
57,lebu,-37.6167,-73.65,55.15,93,100,17.11,CL,1690838215
58,olyokminsk,60.3736,120.4264,51.31,63,98,4.47,RU,1690838215
59,codrington,-38.2667,141.9667,51.87,89,83,8.25,AU,1690838051
60,fort bragg,35.139,-79.006,83.88,90,75,6.91,US,1690838216
61,alo,7.4178,6.7371,75.88,96,100,6.29,NG,1690838216
62,barah,13.7,30.3667,84.07,55,2,13.58,SD,1690838217
63,bathsheba,13.2167,-59.5167,84.81,84,20,9.22,BB,1690838217
64,saint-francois,46.4154,3.9054,74.64,50,0,10.36,FR,1690838217
65,st. john's,47.5649,-52.7093,64.15,88,100,11.5,CA,1690838218
66,mariental,-24.6333,17.9667,45.82,26,0,11.36,NA,1690838218
67,ust-nera,64.5667,143.2,47.62,97,100,7.31,RU,1690838219
68,alton north (historical),26.2953,-98.3045,104.95,36,20,6.91,US,1690838219
69,kill devil hills,36.0307,-75.676,82.42,62,0,8.05,US,1690838219
70,kerch,45.3583,36.4758,79.34,54,36,9.95,UA,1690837921
71,mutuali,-14.8706,37.0044,67.15,50,25,8.16,MZ,1690838220
72,albany,42.6001,-73.9662,75.45,67,29,3.0,US,1690838063
73,pangody,65.85,74.4859,63.07,80,100,6.06,RU,1690838221
74,kawant,22.1,74.05,77.85,88,95,9.84,IN,1690838103
75,aasiaat,68.7098,-52.8699,37.8,89,98,1.34,GL,1690838222
76,constantia,44.1833,28.65,66.88,76,100,2.42,RO,1690838222
77,miandrivazo,-19.5167,45.4667,69.89,48,4,1.43,MG,1690838222
78,kapa'a,22.0752,-159.319,86.32,77,0,14.97,US,1690838223
79,tomatlan,19.9333,-105.25,91.69,56,96,9.86,MX,1690838224
80,carauari,-4.8828,-66.8958,93.83,35,75,2.33,BR,1690838224
81,saint-joseph,-21.3667,55.6167,70.47,83,18,12.24,RE,1690837936
82,kuraymah,18.55,31.85,97.11,16,63,1.45,SD,1690838225
83,birobidzhan,48.8,132.95,68.7,96,100,6.55,RU,1690838225
84,ulladulla,-35.35,150.4667,48.0,77,0,6.64,AU,1690838226
85,saint-philippe,-21.3585,55.7679,69.39,86,42,14.29,RE,1690838226
86,huilong,31.8111,121.655,80.92,88,100,13.47,CN,1690838227
87,yomju-up,39.8933,124.5981,73.13,91,99,2.21,KP,1690838227
88,armidale,-30.5167,151.65,37.4,70,0,1.79,AU,1690838228
89,iqaluit,63.7506,-68.5145,49.73,76,75,5.75,CA,1690838048
90,dompu,-8.5356,118.4622,70.23,97,32,1.39,ID,1690838228
91,san andres,12.5847,-81.7006,84.22,89,40,9.22,CO,1690838229
92,praya,14.9215,-23.5087,81.14,83,40,10.36,CV,1690838230
93,al wajh,26.2455,36.4525,87.75,70,0,5.75,SA,1690838230
94,ibicui,-14.8417,-39.9867,67.95,84,99,3.13,BR,1690838230
95,copala,16.65,-98.9833,89.44,63,100,11.77,MX,1690838231
96,vadso,70.0744,29.7487,52.68,93,100,12.66,NO,1690838231
97,hawaiian paradise park,19.5933,-154.9731,81.91,82,20,10.36,US,1690838041
98,iskateley,67.6803,53.1512,67.33,64,10,7.31,RU,1690838232
99,sitka,57.0531,-135.33,62.49,77,100,6.91,US,1690838067
100,bilibino,68.0546,166.4372,47.03,76,100,3.15,RU,1690838233
101,glace bay,46.1969,-59.957,73.85,77,75,11.5,CA,1690838233
102,jamestown,42.097,-79.2353,72.52,65,75,10.36,US,1690838234
103,paradip garh,20.3167,86.6167,80.58,90,100,15.32,IN,1690838234
104,enewetak,11.3474,162.3373,82.76,82,100,14.83,MH,1690838234
105,bredasdorp,-34.5322,20.0403,47.41,81,58,4.81,ZA,1690838235
106,clinton,42.587,-82.9199,80.62,54,75,10.36,US,1690838235
107,bandarbeyla,9.4942,50.8122,75.76,84,52,28.95,SO,1690838236
108,bamyan,34.75,67.25,48.85,47,0,5.19,AF,1690838236
109,ushuaia,-54.8,-68.3,38.86,48,40,10.36,AR,1690838030
110,imbituba,-28.24,-48.6703,61.54,71,6,4.65,BR,1690838237
111,invercargill,-46.4,168.35,44.02,80,40,8.01,NZ,1690838237
112,callao,-12.0667,-77.15,71.89,68,75,14.97,PE,1690837991
113,tofol,5.3248,163.0078,82.33,77,100,8.19,FM,1690838238
114,katsuura,35.1333,140.3,78.84,90,100,8.39,JP,1690838238
115,coron,11.9986,120.2043,79.84,82,100,7.63,PH,1690838239
116,margaret river,-33.95,115.0667,57.45,78,39,14.05,AU,1690838239
117,swift current,50.2834,-107.8014,90.41,19,0,14.97,CA,1690838240
118,namibe,-15.1961,12.1522,61.63,85,5,4.65,AO,1690838240
119,lompoc,34.6391,-120.4579,94.78,67,40,10.36,US,1690838044
120,aral,40.5156,81.2636,74.39,47,60,10.98,CN,1690838242
121,cockburn town,21.4612,-71.1419,84.11,77,42,15.66,TC,1690838242
122,gazli,40.1333,63.45,92.53,17,28,14.41,UZ,1690838243
123,ketchikan,55.3422,-131.6461,59.47,94,100,11.5,US,1690838243
124,port lincoln,-34.7333,135.8667,52.54,83,0,2.84,AU,1690838243
125,chanute,37.6792,-95.4572,96.48,46,0,14.97,US,1690838244
126,valparaiso,-33.0393,-71.6273,60.01,87,75,9.22,CL,1690837955
127,ta`u,-14.2336,-169.5144,81.16,77,100,12.5,AS,1690838246
128,ghorawal,24.7667,82.7833,84.63,72,100,8.75,IN,1690838247
129,bikenibeu village,1.3673,173.1241,78.76,89,100,10.36,KI,1690838247
130,faya-largeau,17.9257,19.1043,94.66,11,0,4.65,TD,1690838247
131,santa ana,33.7456,-117.8678,98.49,55,75,11.5,US,1690838248
132,capitao poco,-1.7464,-47.0594,78.84,79,80,6.06,BR,1690838248
133,avarua,-21.2078,-159.775,80.65,89,20,5.75,CK,1690838064
134,east end,34.5507,-92.341,94.14,33,87,4.59,US,1690838249
135,aldan,58.6031,125.3894,51.26,90,84,2.46,RU,1690838250
136,nemuro,43.3236,145.575,58.44,99,100,4.65,JP,1690838250
137,ghat,24.9647,10.1728,98.44,11,12,7.7,LY,1690838250
138,tamanrasset,22.785,5.5228,85.91,10,0,4.61,DZ,1690838251
139,college,64.8569,-147.8028,74.21,58,75,5.75,US,1690838043
140,qaqortoq,60.7167,-46.0333,43.11,86,56,4.29,GL,1690838252
141,arafat,21.3594,39.9664,92.93,19,23,4.14,SA,1690838252
142,hadibu,12.65,54.0333,78.94,80,78,17.11,YE,1690838253
143,oliver,49.1831,-119.5524,84.11,18,0,3.44,CA,1690838253
144,idri,27.5,13.2667,94.91,22,0,16.53,LY,1690838253
145,canete,-37.8,-73.4,55.56,94,100,9.64,CL,1690838254
146,tura,25.5198,90.2201,75.38,97,100,4.59,IN,1690838254
147,nabire,-3.3667,135.4833,78.89,85,100,1.97,ID,1690838133
148,nova olinda do norte,-3.8881,-59.0942,93.83,39,69,2.84,BR,1690838256
149,pokachi,61.7198,75.3683,61.93,89,96,8.63,RU,1690838256
150,kununurra,-15.7667,128.7333,64.38,63,5,3.44,AU,1690838258
151,saynshand,44.8824,110.1163,73.87,75,91,15.41,MN,1690838258
152,walvis bay,-22.9575,14.5053,59.9,41,0,9.95,NA,1690838085
153,metairie,29.9841,-90.1528,100.4,50,40,9.22,US,1690838259
154,cranbourne east,-38.1081,145.3056,54.52,83,41,5.99,AU,1690838259
155,afaahiti,-17.75,-149.2833,82.27,75,8,23.22,PF,1690838260
156,harstad,68.799,16.5293,69.19,70,100,5.75,NO,1690838215
157,qarazhal,48.0078,70.7903,76.41,41,0,5.32,KZ,1690838261
158,fale old settlement,-9.3852,-171.2468,83.35,75,20,15.7,TK,1690838261
159,brisas de zicatela,15.8369,-97.0419,93.72,59,40,11.5,MX,1690838261
160,wuyishan,28.0047,117.8114,73.26,93,79,3.51,CN,1690838262
161,sao vicente,-23.9631,-46.3919,71.98,56,100,3.44,BR,1690838262
162,bardai,11.65,7.2333,69.98,96,100,15.39,NG,1690838263
163,lorengau,-2.0226,147.2712,81.9,83,85,6.42,PG,1690838264
164,lethbridge,49.7,-112.8186,89.71,14,20,16.11,CA,1690838265
165,hamilton,39.1834,-84.5333,83.77,47,40,13.8,US,1690838265
166,port saint john's,-31.6229,29.5448,60.69,41,1,16.64,ZA,1690838266
167,calama,-22.4667,-68.9333,75.69,6,0,17.27,CL,1690838266
168,eregli,37.5133,34.0467,73.96,25,0,4.63,TR,1690838266
169,bornu yassu,12.2774,12.5552,89.19,46,42,9.19,NG,1690838267
170,mansa,29.9833,75.3833,90.19,51,49,3.89,IN,1690838267
171,thompson,55.7435,-97.8558,78.96,41,0,8.05,CA,1690838040
172,lata,40.1629,-8.3327,61.68,97,0,3.38,PT,1690838268
173,novovolyns'k,50.7258,24.1626,59.7,90,34,5.41,UA,1690838269
174,rialma,-15.315,-49.5844,85.78,23,41,3.42,BR,1690838269
175,nikolayevsk-on-amure,53.1406,140.73,61.43,93,100,4.97,RU,1690838270
176,quellon,-43.1167,-73.6167,52.05,87,100,19.57,CL,1690838271
177,new norfolk,-42.7826,147.0587,47.7,88,94,12.3,AU,1690838271
178,port mathurin,-19.6833,63.4167,74.14,74,27,23.78,MU,1690838272
179,colonia,50.9333,6.95,64.58,89,20,10.36,DE,1690838100
180,george town,5.4112,100.3354,82.33,87,20,2.3,MY,1690838273
181,saipan,15.1355,145.701,81.64,100,0,3.44,MP,1690838274
182,amahai,-3.3333,128.9167,81.0,91,80,4.18,ID,1690838275
183,vila velha,-20.3297,-40.2925,69.94,84,75,6.91,BR,1690838275
184,northam,51.0333,-4.2167,62.65,92,53,19.91,GB,1690838088
185,hithadhoo,-0.6,73.0833,82.56,72,84,3.87,MV,1690838276
186,cacahoatan,14.9833,-92.1667,88.0,83,97,3.18,MX,1690838276
187,smithers,54.7804,-127.1743,66.52,52,75,8.05,CA,1690838278
188,hachioji,35.6558,139.3239,82.56,86,0,4.0,JP,1690838278
189,pitimbu,-7.4706,-34.8086,77.59,78,0,13.02,BR,1690838278
190,guiren,33.6697,118.1889,74.19,96,5,8.7,CN,1690838279
191,puerto aysen,-45.4,-72.7,41.04,100,100,0.0,CL,1690838280
192,pailin,12.849,102.6093,76.77,88,100,6.11,KH,1690838280
193,spasskoye,44.6108,132.7969,70.66,78,70,8.28,RU,1690838281
194,tolanaro,-25.0319,46.9987,65.66,89,37,8.14,MG,1690838077
195,selfoss,63.9331,-20.9971,58.05,81,64,6.22,IS,1690838281
196,essaouira,31.5125,-9.77,87.3,72,0,12.66,MA,1690838282
197,yemel'yanovo,56.1681,92.6767,58.08,100,0,2.24,RU,1690838283
198,vorgashor,67.5833,63.95,60.22,78,45,2.51,RU,1690838283
199,uturoa,-16.7333,-151.4333,79.14,76,95,20.89,PF,1690838284
200,atafu village,-8.5421,-172.5159,82.62,79,82,13.27,TK,1690838284
201,nuuk,64.1835,-51.7216,47.88,81,20,10.36,GL,1690838285
202,tynda,55.1667,124.7167,58.48,94,15,2.55,RU,1690838285
203,box elder,41.5005,-112.8764,95.25,42,91,3.4,US,1690838285
204,petropavlovka,50.6114,105.3196,65.93,78,84,3.11,RU,1690838286
205,hincesti,46.8258,28.5936,67.57,91,100,1.5,MD,1690838286
206,taroudant,30.4703,-8.877,79.16,51,40,3.78,MA,1690838287
207,cidreira,-30.1811,-50.2056,61.52,84,17,5.08,BR,1690838288
208,burang,30.25,81.1667,51.58,83,82,3.74,CN,1690838288
209,kristiansund,63.1115,7.732,60.85,88,75,6.91,NO,1690838289
210,karema,-6.8205,30.4389,72.66,33,6,2.62,TZ,1690838290
211,praia da vitoria,38.7333,-27.0667,77.76,94,20,5.41,PT,1690838291
212,trairi,-3.2778,-39.2689,78.69,77,57,12.68,BR,1690838291
213,hinthada,17.6333,95.4667,77.85,92,98,12.57,MM,1690838291
214,coquimbo,-29.9533,-71.3436,56.93,88,75,6.91,CL,1690838124
215,ribeirao da ilha,-27.6993,-48.5322,67.17,80,0,1.14,BR,1690838294
216,revda,56.801,59.9303,61.39,96,100,3.11,RU,1690838295
217,torrington,41.8007,-73.1212,80.13,61,68,7.36,US,1690838295
218,sao jose da coroa grande,-8.8978,-35.1478,74.97,82,2,7.67,BR,1690838295
219,keflavik,64.0049,-22.5624,53.51,93,40,9.22,IS,1690838296
220,pacific grove,36.6177,-121.9166,80.24,79,40,8.05,US,1690838213
221,labytnangi,66.6572,66.4183,57.24,75,16,6.31,RU,1690838297
222,san patricio,28.017,-97.5169,101.12,35,37,15.66,US,1690838297
223,tubarjal,30.4999,38.216,90.19,15,0,12.28,SA,1690838298
224,prince rupert,54.3161,-130.3201,60.89,89,100,9.22,CA,1690838298
225,campo formoso,-10.5075,-40.3214,73.92,58,83,10.13,BR,1690838299
226,yamada,39.4667,141.95,75.07,85,100,4.21,JP,1690838299
227,tuba city,36.135,-111.2399,91.38,35,83,1.99,US,1690838299
228,trevelin,-43.0858,-71.4639,51.28,89,100,9.44,AR,1690838300
229,mumford,5.2618,-0.759,75.79,92,100,11.81,GH,1690838300
230,zuni pueblo,35.0725,-108.8506,70.43,18,67,10.31,US,1690838301
231,macau,22.2006,113.5461,82.2,89,40,9.22,MO,1690838301
232,omdurman,15.6445,32.4777,95.74,35,67,16.82,SD,1690838301
233,farmington,36.7281,-108.2187,95.23,46,0,8.01,US,1690838302
234,aykhal,66.0,111.5,54.19,47,19,3.96,RU,1690838302
235,baotou,40.6522,109.8222,71.91,86,10,8.3,CN,1690838303
236,mount pleasant,32.7941,-79.8626,90.25,76,0,9.22,US,1690838303
237,watampone,-4.5386,120.3279,74.84,90,75,4.79,ID,1690838303
238,ocara,-4.4908,-38.5967,80.11,59,22,10.25,BR,1690838304
239,choibalsan,48.0667,114.5,72.41,50,35,7.43,MN,1690838304
240,jawf al maqbabah,13.8378,45.8349,83.59,58,100,2.57,YE,1690838305
241,tazovsky,67.4667,78.7,53.85,85,54,8.86,RU,1690838305
242,fenghua,29.6563,121.4064,78.69,94,40,2.24,CN,1690838305
243,kargasok,59.0556,80.8572,60.55,99,100,3.42,RU,1690838306
244,sur,22.5667,59.5289,89.22,58,13,13.35,OM,1690838078
245,zyryanovsk,49.7386,84.2719,64.08,67,13,1.57,KZ,1690838307
246,tromso,69.6496,18.957,61.38,72,0,3.44,NO,1690838079
247,quelimane,-17.8786,36.8883,71.55,88,0,0.0,MZ,1690838307
248,najafabad,32.6344,51.3668,81.14,11,5,7.78,IR,1690838308
249,rouissat,31.9243,5.3502,102.27,19,94,4.61,DZ,1690838308
250,primorskiy,43.0983,131.5875,70.54,88,51,1.34,RU,1690838309
251,howrah,22.5892,88.3103,80.6,100,100,4.61,IN,1690838079
252,pisco,-13.7,-76.2167,69.85,73,0,14.97,PE,1690838309
253,kaspiyskiy,45.3929,47.3707,78.1,51,0,1.39,RU,1690838310
254,susuman,62.7833,148.1667,47.98,84,100,5.53,RU,1690838048
255,vila do maio,15.1333,-23.2167,81.39,76,30,3.89,CV,1690838311
256,baise city,23.8997,106.6133,76.6,98,96,1.45,CN,1690838311
257,queenstown,-31.8976,26.8753,39.13,66,13,5.7,ZA,1690838311
258,chonchi,-42.6128,-73.8092,51.01,83,75,17.05,CL,1690838312
259,carnarvon,-24.8667,113.6333,63.41,36,0,7.45,AU,1690838312
260,ocean city,39.2776,-74.5746,84.45,70,82,7.0,US,1690838313
261,georgetown,5.4112,100.3354,82.33,87,20,2.3,MY,1690838313
262,alesund,62.4723,6.1549,61.72,92,20,13.8,NO,1690838313
263,suwayr,30.1171,40.3893,95.94,13,1,6.42,SA,1690838314
264,alaghsas,17.0187,8.0168,99.9,16,23,4.03,NE,1690838314
265,salinas,36.6777,-121.6555,93.56,61,0,13.8,US,1690838163
266,vernon,50.2581,-119.2691,86.29,20,0,2.3,CA,1690838315
267,lima duarte,-21.8425,-43.7931,61.7,77,15,3.27,BR,1690838315
268,port alfred,-33.5906,26.891,52.18,78,78,7.0,ZA,1690838316
269,vavoua,7.3819,-6.4778,72.59,90,84,0.96,CI,1690838316
270,port antonio,18.18,-76.4612,95.0,64,7,12.12,JM,1690838317
271,kruisfontein,-34.0033,24.7314,48.88,77,95,18.52,ZA,1690838317
272,san antonio de pale,-1.4014,5.6325,72.86,78,100,13.76,GQ,1690838318
273,alofi,-19.0595,-169.9187,73.29,88,75,13.8,NU,1690838318
274,udachny,66.4167,112.4,53.46,46,45,4.16,RU,1690838318
275,mermoz boabab,14.7065,-17.4758,81.16,80,34,11.23,SN,1690838319
276,igarra,7.2827,6.0878,73.13,97,100,7.74,NG,1690838320
277,luis correia,-2.8792,-41.6669,82.4,74,20,12.66,BR,1690838320
278,kapuskasing,49.4169,-82.4331,69.8,43,75,2.3,CA,1690838321
279,daru,-9.0763,143.2092,76.96,82,81,10.76,PG,1690838321
280,santa marinella,42.0345,11.8536,77.68,69,0,0.89,IT,1690838321
281,barra de sao francisco,-18.755,-40.8908,70.32,67,99,1.45,BR,1690838322
282,tsuruoka,38.7217,139.8217,73.4,92,100,4.9,JP,1690838322
283,kiomboi,-4.2667,34.3667,67.01,37,44,7.49,TZ,1690838323
284,kudahuvadhoo,2.6708,72.8944,82.02,75,68,5.03,MV,1690838323
285,badger,64.8,-147.5333,73.99,56,75,5.75,US,1690838324
286,la ronge,55.1001,-105.2842,68.25,68,75,8.05,CA,1690838324
287,cururupu,-1.8283,-44.8683,78.71,83,43,3.33,BR,1690838325
288,bonny,4.4522,7.1681,77.72,87,100,15.41,NG,1690838325
289,shwebo,22.5667,95.7,79.86,82,100,9.75,MM,1690838325
290,ishigaki,24.3448,124.1572,82.53,83,75,13.8,JP,1690838326
291,kalmunai,7.4167,81.8167,79.81,73,100,3.83,LK,1690838326
292,kuanda,56.3161,116.0806,62.82,85,61,1.36,RU,1690838072
293,wailua homesteads,22.0669,-159.378,84.99,77,0,14.97,US,1690838327
294,dawesville,30.9224,-84.0091,93.67,61,40,5.01,US,1690838327
295,akureyri,65.6835,-18.0878,53.53,71,20,6.91,IS,1690838328
296,urengoy,65.9667,78.3667,64.24,75,100,6.98,RU,1690838328
297,whitehorse,60.7161,-135.0538,70.57,58,75,4.61,CA,1690838189
298,karbala,32.616,44.0249,99.5,11,0,8.63,IQ,1690838128
299,gadzhiyevo,69.2551,33.3362,52.0,90,100,9.84,RU,1690838330
300,priob'ye,62.5206,65.5964,64.56,73,99,5.35,RU,1690838330
301,russkaya polyana,49.417,31.9201,64.85,91,100,3.47,UA,1690838331
302,biryusinsk,55.9634,97.8235,60.53,87,4,1.14,RU,1690838331
303,mar del plata,-38.0023,-57.5575,51.94,92,100,4.0,AR,1690838331
304,badiyah,22.45,58.8,87.04,54,4,6.73,OM,1690838332
305,banchory,57.0517,-2.4882,57.29,99,100,6.91,GB,1690838332
306,yatou,37.15,122.3833,74.64,94,91,2.37,CN,1690838333
307,dazhou,31.2159,107.5009,77.5,91,79,3.98,CN,1690838109
308,villamontes,-21.25,-63.5,90.5,25,0,7.87,BO,1690838333
309,abepura,-2.6333,140.5833,77.81,83,20,2.3,ID,1690838334
310,caxias,38.7031,-9.2767,71.92,74,75,15.01,PT,1690838334
311,lensk,60.7253,114.9278,51.78,90,70,5.41,RU,1690838335
312,sanctuary point,-35.1114,150.629,55.98,69,0,8.61,AU,1690838335
313,arinos,-15.9169,-46.1056,78.78,36,10,4.12,BR,1690838336
314,sola,-13.8833,167.55,70.47,94,75,9.22,VU,1690838336
315,nambucca heads,-30.65,153.0,53.17,70,0,5.32,AU,1690838337
316,palikir - national government center,6.9248,158.1611,81.0,78,76,8.23,FM,1690838337
317,sosua,19.7667,-70.5167,94.98,70,75,13.8,DO,1690838338
318,borovichi,58.3878,33.9155,58.98,93,50,3.67,RU,1690838338
319,chetwayi,10.5333,76.05,77.88,87,90,5.66,IN,1690838339
320,gedo,9.0167,37.45,51.31,98,100,2.1,ET,1690838339
321,shahrak,34.1074,64.3052,57.43,32,0,3.94,AF,1690838339
322,asau,46.4333,26.4,61.72,93,100,2.8,RO,1690838340
323,sarina,-21.4333,149.2167,62.62,1,5,5.55,AU,1690838340
324,sena madureira,-9.0656,-68.6569,95.72,25,1,1.95,BR,1690838341
325,tolstoy-yurt,43.4444,45.7722,71.92,78,0,4.47,RU,1690838219
326,krasnovishersk,60.4078,57.082,61.12,69,98,4.18,RU,1690838342
327,anadyr,64.75,177.4833,61.3,67,0,8.95,RU,1690838342
328,vilyuchinsk,52.9306,158.4028,52.07,97,100,1.32,RU,1690838343
329,crockett,31.3182,-95.4566,102.18,27,20,0.0,US,1690838343
330,borogontsy,62.6683,131.1683,49.05,96,98,5.88,RU,1690838343
331,laguna,38.421,-121.4238,100.18,27,0,6.91,US,1690838234
332,ikungi,-5.1333,34.7667,64.06,49,11,8.99,TZ,1690838344
333,berehomet,48.1788,25.3486,59.59,93,98,3.96,UA,1690838345
334,prado,-17.3411,-39.2208,71.1,74,98,6.55,BR,1690838345
335,humberto de campos,-2.5983,-43.4611,79.65,79,46,7.67,BR,1690838345
336,bhamo,24.2667,97.2333,76.19,100,100,0.29,MM,1690838346
337,galliano,29.4422,-90.2992,99.0,49,0,4.61,US,1690838346
338,siuri,23.9167,87.5333,89.89,66,81,4.0,IN,1690838347
339,coahuayana de hidalgo,18.7,-103.6583,92.52,53,86,6.11,MX,1690838075
340,emerald,-23.5333,148.1667,56.3,89,61,2.44,AU,1690838347
341,maslyanino,54.3436,84.2111,65.59,76,80,1.16,RU,1690838348
342,knyaze-volkonskoye,48.4642,135.4567,70.14,78,100,13.96,RU,1690838348
343,grand falls-windsor,48.9332,-55.6649,66.51,71,96,4.0,CA,1690838349
344,ceeldheer,3.8488,47.1806,76.05,84,40,15.46,SO,1690838349
345,hauterive,46.0901,3.4459,74.16,59,32,5.1,FR,1690838349
346,tocopilla,-22.092,-70.1979,69.76,64,7,9.31,CL,1690838350
347,polyarnyy,69.1989,33.4478,52.9,89,100,8.52,RU,1690838350
348,lae,-6.7221,146.9847,75.87,87,91,4.45,PG,1690838351
349,sturgis,41.7992,-85.4192,78.6,44,40,0.0,US,1690838351
350,coronado,32.6859,-117.1831,90.41,76,75,13.8,US,1690838352
351,kampene,-3.6,26.6667,74.53,33,25,2.64,CD,1690838040
352,mirnyy,62.5353,113.9611,50.23,57,3,7.0,RU,1690838353
353,shubarshi,48.5872,57.1869,73.53,41,0,9.17,KZ,1690838353
354,holualoa,19.6228,-155.9522,80.78,71,40,9.22,US,1690838354
355,tuy hoa,13.0833,109.3,77.86,87,100,18.63,VN,1690838354
356,shiguai,40.7058,110.2856,67.77,93,28,6.51,CN,1690838355
357,rio pardo,-29.9897,-52.3781,64.53,90,18,2.8,BR,1690838355
358,puerto baquerizo moreno,-0.9,-89.6,79.79,78,75,17.27,EC,1690838356
359,hammerfest,70.6634,23.6821,59.45,72,0,12.66,NO,1690838162
360,port macquarie,-31.4333,152.9167,46.89,75,2,4.92,AU,1690838356
361,amga,60.8953,131.9608,47.35,86,47,6.71,RU,1690838357
362,yinchuan,38.4681,106.2731,77.9,55,2,1.5,CN,1690838120
363,kanina khas,28.3333,76.3167,87.21,62,29,6.82,IN,1690838358
364,dellys,36.9172,3.9131,78.12,79,0,4.43,DZ,1690838358
365,gizo,-8.103,156.8419,79.95,84,100,18.25,SB,1690838358
366,ma'an,26.9775,110.7211,75.78,96,100,2.44,CN,1690838359
367,pama,11.2497,0.7075,81.21,70,69,9.73,BF,1690838359
368,karachi,24.9056,67.0822,84.02,74,75,12.66,PK,1690838360
369,kilkis,40.9919,22.8708,79.29,61,62,0.92,GR,1690838360
370,rocky mountain house,52.3668,-114.9188,71.71,56,6,6.91,CA,1690838360
371,phalaborwa,-23.943,31.1411,59.88,26,0,4.45,ZA,1690838361
372,nar'yan-mar,67.6713,53.087,67.42,64,10,7.2,RU,1690838266
373,lib,8.3122,167.3766,82.81,79,57,14.05,MH,1690838362
374,kouango,4.9934,19.9619,73.54,94,100,1.57,CF,1690838362
375,matoury,4.8483,-52.3317,84.16,74,0,11.5,GF,1690838362
376,mogok,22.9167,96.5,67.14,99,100,2.46,MM,1690838363
377,as samawah,31.332,45.2944,102.25,11,0,8.97,IQ,1690838363
378,east london,-33.0153,27.9116,56.59,57,11,22.75,ZA,1690838364
379,lexington,37.9887,-84.4777,86.0,47,0,8.05,US,1690838364
380,saudarkrokur,65.7461,-19.6394,49.15,90,53,3.47,IS,1690838365
381,tongouson,5.0214,120.1328,82.8,75,6,9.15,PH,1690838365
382,mindelo,16.8901,-24.9804,81.95,74,40,11.5,CV,1690838366
383,gornopravdinsk,60.05,69.9,60.67,97,100,4.29,RU,1690838366
384,newman,37.3138,-121.0208,99.05,8,2,3.67,US,1690838367
385,palmer,42.1584,-72.3287,79.21,52,75,16.11,US,1690838070
386,kungalv,57.871,11.9805,57.67,93,2,2.44,SE,1690838240
387,qaisumah,28.3112,46.1273,94.96,11,0,3.44,SA,1690838368
388,beidao,34.5686,105.8933,68.16,92,5,2.62,CN,1690838368
389,sherbakul',54.6316,72.3963,64.9,79,34,0.34,RU,1690838369
390,chita,52.0333,113.55,58.89,93,85,2.24,RU,1690838349
391,hue,16.4667,107.6,84.31,74,40,2.3,VN,1690838195
392,rio preto da eva,-2.6994,-59.6997,88.93,44,95,0.92,BR,1690838370
393,vila franca do campo,37.7167,-25.4333,75.61,90,61,3.33,PT,1690838370
394,urangan,-25.3,152.9,63.09,83,28,3.18,AU,1690838371
395,cannonvale,-20.2833,148.7,67.39,88,6,11.05,AU,1690838371
396,nogliki,51.8333,143.1667,57.74,88,100,9.78,RU,1690838371
397,rumphi,-11.0186,33.8575,60.3,61,4,3.56,MW,1690838372
398,ilhabela,-23.7781,-45.3581,68.09,87,40,4.36,BR,1690838372
399,kuragino,53.8975,92.6725,60.94,79,1,2.48,RU,1690838373
400,the pas,53.8251,-101.2541,80.62,50,40,16.11,CA,1690838373
401,choix,26.7092,-108.3219,100.51,31,0,8.01,MX,1690838373
402,chicoana,-25.1009,-65.5331,78.85,27,0,7.11,AR,1690838374
403,nadym,65.5333,72.5167,59.34,86,27,8.66,RU,1690838374
404,varadero,23.1536,-81.2514,92.16,67,20,13.85,CU,1690838375
405,kodinar,20.7903,70.7031,80.22,88,100,19.06,IN,1690838375
406,wanning,18.8003,110.3967,79.9,89,100,3.87,CN,1690838376
407,toamasina,-18.1667,49.3833,69.8,94,75,3.44,MG,1690838376
408,puerto san jose,13.9256,-90.8244,88.14,63,59,7.56,GT,1690838376
409,mana,5.6592,-53.7767,81.03,80,10,10.36,GF,1690838377
410,banda aceh,5.5577,95.3222,80.1,80,94,13.04,ID,1690838377
411,beterou,9.1992,2.2586,74.98,91,97,3.15,BJ,1690838378
412,mouila,-1.8685,11.0559,73.2,75,76,5.14,GA,1690838378
413,khovd,48.0056,91.6419,62.91,79,97,1.97,MN,1690838379
414,poso,-1.3959,120.7524,83.34,66,89,5.21,ID,1690838379
415,anastacio,-20.4836,-55.8069,86.76,27,0,4.41,BR,1690838380
416,auki,-8.7676,160.7034,76.01,86,56,7.45,SB,1690838380
417,salinopolis,-0.6136,-47.3561,79.05,85,8,12.28,BR,1690838380
418,crane,31.3974,-102.3501,98.96,25,36,16.24,US,1690838381
419,moengo,5.6167,-54.4,83.52,69,46,6.02,SR,1690838381
420,minas de marcona,-15.2119,-75.1103,65.05,62,25,11.12,PE,1690838382
421,mount isa,-20.7333,139.5,60.57,59,77,8.05,AU,1690838383
422,las toscas,-28.3529,-59.258,79.7,52,11,5.41,AR,1690838383
423,inirida,3.8653,-67.9239,82.49,83,37,1.48,CO,1690838384
424,broome,42.2506,-75.833,72.7,72,40,9.22,US,1690838384
425,dudinka,69.4058,86.1778,58.62,93,4,11.1,RU,1690838384
426,beledweyne,4.7358,45.2036,77.2,65,29,19.39,SO,1690838385
427,ola,59.5833,151.2833,55.15,87,100,5.86,RU,1690838385
428,broken hill,-31.95,141.4333,45.66,86,0,8.72,AU,1690838387
429,ringsted,55.4426,11.7901,62.38,96,99,5.7,DK,1690838387
430,gornozavodsk,58.3758,58.3211,62.44,80,85,3.6,RU,1690838388
431,karaton,-6.3424,106.1045,69.6,92,12,2.01,ID,1690838388
432,page,36.9147,-111.4558,92.98,30,0,6.91,US,1690838389
433,conception bay south,47.4999,-52.9981,63.91,88,86,8.93,CA,1690838389
434,mount gambier,-37.8333,140.7667,48.99,94,70,3.6,AU,1690838390
435,moree,-29.4667,149.85,46.6,69,0,6.29,AU,1690838390
436,arenapolis,-14.4503,-56.8461,94.14,21,16,4.9,BR,1690838391
437,roxas,11.5853,122.7511,75.15,86,100,6.15,PH,1690838391
438,kolonia town,6.964,158.206,82.06,77,75,7.47,FM,1690838392
439,oriximina,-1.7656,-55.8661,93.06,39,29,6.4,BR,1690838392
440,huancavelica,-12.7667,-74.9833,47.05,41,99,11.1,PE,1690838393
441,sumbe,-11.2061,13.8437,68.99,89,82,8.19,AO,1690838393
442,namtsy,62.7161,129.6658,53.37,61,99,12.21,RU,1690838394
443,lanzhou,36.0564,103.7922,77.56,53,91,2.73,CN,1690838211
444,cabo san lucas,22.8909,-109.9124,100.62,55,0,11.5,MX,1690838394
445,barakani,-12.1356,44.4317,76.12,79,3,2.15,KM,1690838395
446,kyzyl-suu,42.3414,78.0056,59.86,67,47,3.02,KG,1690838395
447,okha,53.5739,142.9478,56.43,90,100,14.65,RU,1690838396
448,malmberget,67.1753,20.6549,59.56,72,75,3.44,SE,1690838396
449,nizhniy kuranakh,58.8353,125.4869,51.91,81,100,2.13,RU,1690838397
450,cape canaveral,28.4058,-80.6048,75.27,85,75,21.85,US,1690838397
451,kavieng,-2.5744,150.7967,81.95,77,100,7.27,PG,1690838397
452,santa vitoria do palmar,-33.5189,-53.3681,55.33,80,96,5.97,BR,1690838398
453,khorramabad,33.4878,48.3558,76.62,20,0,4.61,IR,1690838102
454,saint-laurent-du-maroni,5.5039,-54.0289,79.97,83,51,5.17,GF,1690838399
455,tosontsengel,48.7567,98.2839,56.84,93,100,2.39,MN,1690838400
456,kenora,49.8167,-94.4337,74.37,53,40,3.44,CA,1690838400
457,howard springs,-12.497,131.047,69.71,70,5,6.04,AU,1690838401
458,keetmanshoop,-26.5833,18.1333,48.83,29,0,10.4,NA,1690838401
459,camalu,30.85,-116.0667,79.0,61,75,10.13,MX,1690838402
460,goundam,16.4145,-3.6708,101.61,24,9,5.91,ML,1690838403
461,tsiombe,-25.3,45.4833,63.61,82,39,4.81,MG,1690838404
462,port augusta,-32.5,137.7667,47.52,85,0,4.43,AU,1690838404
463,tangalle,6.024,80.7911,79.03,84,100,14.32,LK,1690838404
464,misratah,32.3754,15.0925,81.95,75,0,8.72,LY,1690838405
465,horta,38.5333,-28.6333,77.02,89,28,1.01,PT,1690838405
466,piste,20.7,-88.5833,93.25,52,75,11.5,MX,1690838406
467,puno,-15.8333,-70.0333,56.77,29,1,11.63,PE,1690838406
468,ghormach,35.7306,63.7826,83.37,20,0,5.32,AF,1690838407
469,sassandra,4.95,-6.0833,74.77,94,98,7.25,CI,1690838407
470,leh,34.1667,77.5833,64.33,44,18,5.23,IN,1690838407
471,turpan,42.9333,89.1667,84.97,43,26,2.55,CN,1690838408
472,askoy,60.4092,5.226,62.02,49,40,8.05,NO,1690838408
473,pariaman,-0.619,100.12,78.85,89,77,3.47,ID,1690838409
474,arraial do cabo,-22.9661,-42.0278,67.86,83,0,8.05,BR,1690838070
475,nasiriyah,31.0521,46.261,101.52,10,0,11.54,IQ,1690838409
476,kargopol',61.5071,38.9456,60.55,96,100,5.08,RU,1690838410
477,isiro,2.7739,27.616,67.12,95,100,0.51,CD,1690838410
478,vilhena,-12.7406,-60.1458,88.02,33,0,6.91,BR,1690838411
479,baoding,38.8511,115.4903,76.37,99,100,3.74,CN,1690838411
480,tindouf,27.6711,-8.1474,106.25,7,40,4.61,DZ,1690838412
481,ruy barbosa,-12.2839,-40.4939,72.77,68,100,1.63,BR,1690838412
482,schuylkill haven,40.6307,-76.1711,82.85,49,6,5.01,US,1690838413
483,haiku-pauwela,20.9219,-156.3051,83.25,64,20,21.85,US,1690838413
484,luanda,-8.8368,13.2343,69.8,88,75,5.75,AO,1690838339
485,usogorsk,63.4106,48.6872,63.63,73,10,5.14,RU,1690838414
486,touros,-5.1989,-35.4608,77.43,79,41,18.21,BR,1690838414
487,sonqor,34.7837,47.6004,72.61,16,6,3.67,IR,1690838415
488,luderitz,-26.6481,15.1594,60.94,36,0,10.31,NA,1690838415
489,waingapu,-9.6567,120.2641,73.94,88,39,10.65,ID,1690838416
490,puttur,12.7667,75.2167,78.91,95,91,0.72,IN,1690838416
491,kananga,-5.8958,22.4178,76.26,25,8,3.91,CD,1690838416
492,pilar do sul,-23.8131,-47.7164,62.44,63,10,2.01,BR,1690838417
493,dubbo,-32.25,148.6167,35.73,100,0,8.05,AU,1690838417
494,thunder bay,48.4001,-89.3168,71.58,68,100,5.75,CA,1690838418
495,nova sintra,14.8667,-24.7167,74.73,83,36,7.87,CV,1690838418
496,taro,-8.3862,115.28,71.6,95,49,1.43,ID,1690838418
497,comodoro rivadavia,-45.8667,-67.5,58.86,41,20,19.57,AR,1690838145
498,madang,-5.2246,145.7966,79.14,89,98,4.03,PG,1690838419
499,trou du nord,19.6333,-72.0167,87.51,77,100,10.63,HT,1690838420
500,bintulu,3.1667,113.0333,77.41,100,20,3.44,MY,1690838420
501,longjiang,47.3303,123.1836,75.88,72,100,7.07,CN,1690838420
502,bosaso,11.2842,49.1816,93.15,40,100,23.11,SO,1690838421
503,san rafael,-34.6177,-68.3301,75.06,23,1,14.5,AR,1690838421
504,kismayo,-0.3582,42.5454,75.65,82,9,14.92,SO,1690838422
505,bryne,58.7354,5.6477,59.99,90,0,5.75,NO,1690838422
506,calvinia,-31.4707,19.776,38.98,81,0,5.68,ZA,1690838423
507,hollidaysburg,40.4273,-78.3889,81.52,47,20,8.05,US,1690838423
508,luau,-10.7073,22.2247,68.63,26,96,7.11,AO,1690838137
509,papao,-17.75,-149.55,83.88,75,10,27.45,PF,1690838424
510,kangding,30.0513,101.9603,60.24,93,91,1.39,CN,1690838424
511,shimanovsk,52.0,127.7,66.13,93,34,6.96,RU,1690838425
512,chibougamau,49.9168,-74.3659,56.82,54,100,12.66,CA,1690838425
513,port moresby,-9.4431,147.1797,76.42,83,100,11.5,PG,1690838425
514,bayanhongor,46.7167,100.1167,59.2,52,76,6.06,MN,1690838426
515,mawlaik,23.6333,94.4167,76.78,99,99,1.99,MM,1690838426
516,richards bay,-28.783,32.0377,64.22,52,68,6.62,ZA,1690838427
517,shalkar,47.8288,59.6258,80.94,28,82,14.65,KZ,1690838427
518,umm kaddadah,13.6017,26.6876,84.18,48,49,13.85,SD,1690838428
519,hotan,37.0997,79.9269,78.53,33,9,5.82,CN,1690838428
520,mejit,10.2753,170.8646,82.53,79,95,13.82,MH,1690838046
521,nagqu,31.5,92.0,42.37,94,100,2.44,CN,1690838429
522,ambatolampy,-19.3833,47.4167,54.59,82,76,1.19,MG,1690838429
523,tucurui,-3.7661,-49.6725,88.25,46,51,3.49,BR,1690838430
524,mili,6.0815,171.735,81.63,82,100,16.64,MH,1690838430
525,forbes,-33.3833,148.0167,39.92,93,0,3.0,AU,1690838431
526,owatonna,44.0839,-93.226,82.76,43,0,6.91,US,1690838431
527,luwingu,-10.2621,29.9271,58.57,36,11,4.0,ZM,1690838432
528,zhangjiakou shi xuanhua qu,40.6103,115.0447,72.77,97,100,5.12,CN,1690838432
529,gardiner,44.2301,-69.7753,73.35,75,75,3.44,US,1690838433
530,buka,40.8108,69.1986,78.69,24,2,3.38,UZ,1690838433
531,tan-tan,28.438,-11.1032,70.84,80,0,12.15,MA,1690838433
532,alto barinas,8.5931,-70.2261,85.73,68,32,6.62,VE,1690838434
533,kalabo,-14.97,22.6814,57.94,28,12,7.47,ZM,1690838434
534,san pa tong,18.6283,98.8957,79.79,94,75,3.44,TH,1690838435
535,menongue,-14.6585,17.691,55.87,35,58,4.9,AO,1690838435
536,igrim,63.1906,64.4162,57.47,78,21,4.94,RU,1690838435
537,chisec,15.8167,-90.2833,88.03,72,100,3.24,GT,1690838436
538,kiunga,-6.1219,141.2906,72.82,95,99,2.71,PG,1690837849
539,quepos,9.4236,-84.1652,83.14,81,90,3.83,CR,1690838437
540,maceio,-9.6658,-35.7353,76.44,83,40,5.75,BR,1690838437
541,aljezur,37.3191,-8.8033,65.19,90,0,14.45,PT,1690838437
542,happy valley-goose bay,53.3168,-60.3315,61.11,82,75,4.61,CA,1690838063
543,caleta de carquin,-11.0925,-77.6267,70.92,71,5,11.81,PE,1690838438
544,palu,-0.8917,119.8707,74.79,92,52,2.98,ID,1690838439
545,kingscliff,-28.2667,153.5667,57.0,100,17,4.61,AU,1690838439
546,cleburne,32.3476,-97.3867,107.78,28,0,11.99,US,1690838439
547,mil'kovo,55.6078,37.7956,66.06,64,22,4.79,RU,1690838440
548,petrozavodsk,61.7849,34.3469,54.86,100,92,4.47,RU,1690838440
549,opuwo,-18.0607,13.84,60.24,24,7,7.54,NA,1690838441
550,taoudenni,22.6783,-3.9836,106.38,8,0,11.16,ML,1690838073
551,anzhero-sudzhensk,56.081,86.0285,61.14,94,64,3.6,RU,1690838441
552,gurlan,41.8447,60.3919,84.11,26,50,10.45,UZ,1690838442
553,laascaanood,8.4774,47.3597,77.47,50,72,28.39,SO,1690838442
554,kerikeri,-35.2268,173.9474,48.9,95,21,3.94,NZ,1690838443
555,al jawf,29.5,38.75,87.26,17,0,8.52,SA,1690838443
556,anloga,5.7947,0.8973,76.89,91,100,14.79,GH,1690838444
557,garden city,42.3256,-83.331,80.06,49,75,8.05,US,1690838444
558,hargeysa,9.56,44.065,73.29,54,17,25.75,SO,1690838444
559,flin flon,54.7682,-101.865,78.64,50,75,4.61,CA,1690838445
560,ust'-kut,56.7938,105.7672,59.9,90,0,2.1,RU,1690838445
561,korla,41.7597,86.1469,78.35,44,16,4.09,CN,1690838446
562,chayan,43.0297,69.3772,83.62,19,2,6.06,KZ,1690838446
563,suntar,62.1444,117.6319,49.28,61,0,4.59,RU,1690838446
564,galveston,29.3669,-94.9669,105.1,51,1,1.01,US,1690838447
565,lamesa,32.7376,-101.951,98.53,24,0,11.65,US,1690838447
566,lyangasovo,58.5176,49.4472,63.43,95,100,1.97,RU,1690838327
567,katabu,-4.9333,122.5167,73.44,87,63,3.96,ID,1690838058
568,huarmey,-10.0681,-78.1522,72.34,70,3,11.52,PE,1690838449
569,island harbour,50.724,-1.2758,62.92,93,100,3.0,GB,1690838449
570,ndjole,-0.1783,10.7649,77.38,71,98,2.82,GA,1690838449
571,lambarene,-0.7001,10.2406,75.15,74,100,8.1,GA,1690838450
572,bada barabil,22.1167,85.4,75.72,93,100,5.95,IN,1690838450
573,taman',45.2117,36.7161,79.07,57,52,10.69,RU,1690838451
574,namsos,64.4662,11.4957,64.31,68,75,16.11,NO,1690838451
575,caorle,45.5966,12.8758,76.96,71,100,5.23,IT,1690838399
576,ulsteinvik,62.3432,5.8487,61.7,89,78,5.01,NO,1690838452
577,nuku'alofa,-21.1333,-175.2,70.14,68,100,14.97,TO,1690838452
578,sao gabriel da cachoeira,-0.1303,-67.0892,86.11,65,61,3.02,BR,1690838453
579,prince albert,53.2001,-105.7677,76.95,69,20,8.05,CA,1690838453
580,granville,-33.8333,151.0167,56.3,81,0,13.8,AU,1690838454
581,pokrovsk,48.282,37.1758,72.7,50,55,5.7,UA,1690838455
582,satu mare,47.8,22.8833,65.07,88,34,2.3,RO,1690838455
583,greymouth,-42.4667,171.2,49.06,79,20,3.74,NZ,1690838456
584,shivpuri,25.4333,77.65,78.82,85,99,10.51,IN,1690838456
585,north side,19.35,-81.2,90.0,66,40,11.5,KY,1690838457
586,winnemucca,40.973,-117.7357,96.85,9,0,10.36,US,1690838457
587,ust'-kalmanka,52.1207,83.305,65.52,76,0,2.44,RU,1690838458
588,gombong,-7.6072,109.5142,70.09,96,47,2.51,ID,1690838459
589,new plymouth,-39.0667,174.0833,52.32,92,16,10.96,NZ,1690838460
590,kitcharao,9.455,125.5731,78.49,86,53,4.99,PH,1690838460
591,isla mujeres,21.2311,-86.731,87.85,64,91,8.72,MX,1690838461
592,kupang,-10.1667,123.5833,72.28,79,76,7.52,ID,1690838461
